header:
  stamp:
    sec: 1750821948
    nanosec: 422058776
  frame_id: dog_imu_link
orientation:
  x: 0.0030626554507762194
  y: 0.004382446873933077
  z: 0.0076677678152918816
  w: 0.9999563097953796
orientation_covariance:
- 0.0
- 0.0
- 0.0
- 0.0
- 0.0
- 0.0
- 0.0
- 0.0
- 0.0
angular_velocity:
  x: 0.0
  y: 0.0010652643395587802
  z: 0.0021305286791175604
angular_velocity_covariance:
- 0.0
- 0.0
- 0.0
- 0.0
- 0.0
- 0.0
- 0.0
- 0.0
- 0.0
linear_acceleration:
  x: -0.10953472554683685
  y: 0.07990647852420807
  z: 9.720758438110352
linear_acceleration_covariance:
- 5.183523055229955e-10
- -2.2237049979167978e-09
- 0.0021305286791175604
- 0.0
- 0.0
- 0.0
- 0.0
- 0.0
- 0.0
---
header:
  stamp:
    sec: 1750821948
    nanosec: 423977217
  frame_id: dog_imu_link
orientation:
  x: 0.003061187220737338
  y: 0.004381651058793068
  z: 0.007667854428291321
  w: 0.9999563097953796
orientation_covariance:
- 0.0
- 0.0
- 0.0
- 0.0
- 0.0
- 0.0
- 0.0
- 0.0
- 0.0
angular_velocity:
  x: 0.0
  y: 0.0010652643395587802
  z: 0.0021305286791175604
angular_velocity_covariance:
- 0.0
- 0.0
- 0.0
- 0.0
- 0.0
- 0.0
- 0.0
- 0.0
- 0.0
linear_acceleration:
  x: -0.09516951441764832
  y: 0.04399345442652702
  z: 9.753080368041992
linear_acceleration_covariance:
- 4.401608855175709e-09
- 2.1729908983303403e-09
- 0.0021305286791175604
- 0.0
- 0.0
- 0.0
- 0.0
- 0.0
- 0.0
---
header:
  stamp:
    sec: 1750821948
    nanosec: 425995834
  frame_id: dog_imu_link
orientation:
  x: 0.0030566658824682236
  y: 0.004377721343189478
  z: 0.007668108679354191
  w: 0.9999563097953796
orientation_covariance:
- 0.0
- 0.0
- 0.0
- 0.0
- 0.0
- 0.0
- 0.0
- 0.0
- 0.0
angular_velocity:
  x: 0.0
  y: 0.0
  z: 0.0021305286791175604
angular_velocity_covariance:
- 0.0
- 0.0
- 0.0
- 0.0
- 0.0
- 0.0
- 0.0
- 0.0
- 0.0
linear_acceleration:
  x: -0.13018471002578735
  y: 0.021547814831137657
  z: 9.720758438110352
linear_acceleration_covariance:
- 1.3450753844068686e-09
- -1.5627600324918944e-09
- 0.0021305286791175604
- 0.0
- 0.0
- 0.0
- 0.0
- 0.0
- 0.0
---
header:
  stamp:
    sec: 1750821948
    nanosec: 428055495
  frame_id: dog_imu_link
orientation:
  x: 0.003053504740819335
  y: 0.004376322031021118
  z: 0.007668280974030495
  w: 0.9999564290046692
orientation_covariance:
- 0.0
- 0.0
- 0.0
- 0.0
- 0.0
- 0.0
- 0.0
- 0.0
- 0.0
angular_velocity:
  x: 0.0
  y: 0.0010652643395587802
  z: 0.0021305286791175604
angular_velocity_covariance:
- 0.0
- 0.0
- 0.0
- 0.0
- 0.0
- 0.0
- 0.0
- 0.0
- 0.0
linear_acceleration:
  x: -0.13018471002578735
  y: 0.04578910768032074
  z: 9.74589729309082
linear_acceleration_covariance:
- 1.1300163027527788e-09
- 1.2073156918646077e-09
- 0.0021305286791175604
- 0.0
- 0.0
- 0.0
- 0.0
- 0.0
- 0.0
---
header:
  stamp:
    sec: 1750821948
    nanosec: 430091327
  frame_id: dog_imu_link
orientation:
  x: 0.0030535035766661167
  y: 0.004376129247248173
  z: 0.0076673757284879684
  w: 0.9999563694000244
orientation_covariance:
- 0.0
- 0.0
- 0.0
- 0.0
- 0.0
- 0.0
- 0.0
- 0.0
- 0.0
angular_velocity:
  x: 0.0031957929022610188
  y: 0.0021305286791175604
  z: 0.0010652643395587802
angular_velocity_covariance:
- 0.0
- 0.0
- 0.0
- 0.0
- 0.0
- 0.0
- 0.0
- 0.0
- 0.0
linear_acceleration:
  x: -0.13018471002578735
  y: 0.04578910768032074
  z: 9.74589729309082
linear_acceleration_covariance:
- -4.490356086961356e-09
- 3.858847907878271e-09
- 0.0010652643395587802
- 0.0
- 0.0
- 0.0
- 0.0
- 0.0
- 0.0
---
header:
  stamp:
    sec: 1750821948
    nanosec: 432022900
  frame_id: dog_imu_link
orientation:
  x: 0.003053972963243723
  y: 0.004376450553536415
  z: 0.007666470482945442
  w: 0.9999563694000244
orientation_covariance:
- 0.0
- 0.0
- 0.0
- 0.0
- 0.0
- 0.0
- 0.0
- 0.0
- 0.0
angular_velocity:
  x: 0.004261057358235121
  y: 0.0031957929022610188
  z: 0.0010652643395587802
angular_velocity_covariance:
- 0.0
- 0.0
- 0.0
- 0.0
- 0.0
- 0.0
- 0.0
- 0.0
- 0.0
linear_acceleration:
  x: -0.09157821536064148
  y: 0.03232172131538391
  z: 9.707290649414062
linear_acceleration_covariance:
- -6.437452793051079e-10
- -3.0577995691061233e-09
- 0.0010652643395587802
- 0.0
- 0.0
- 0.0
- 0.0
- 0.0
- 0.0
---
header:
  stamp:
    sec: 1750821948
    nanosec: 434007186
  frame_id: dog_imu_link
orientation:
  x: 0.0030548765789717436
  y: 0.004377210047096014
  z: 0.007665564306080341
  w: 0.9999563694000244
orientation_covariance:
- 0.0
- 0.0
- 0.0
- 0.0
- 0.0
- 0.0
- 0.0
- 0.0
- 0.0
angular_velocity:
  x: 0.004261057358235121
  y: 0.0031957929022610188
  z: 0.0010652643395587802
angular_velocity_covariance:
- 0.0
- 0.0
- 0.0
- 0.0
- 0.0
- 0.0
- 0.0
- 0.0
- 0.0
linear_acceleration:
  x: -0.07721300423145294
  y: 0.020649990066885948
  z: 9.742305755615234
linear_acceleration_covariance:
- 6.4098690799596625e-09
- 1.913354807925316e-09
- 0.0010652643395587802
- 0.0
- 0.0
- 0.0
- 0.0
- 0.0
- 0.0
---
header:
  stamp:
    sec: 1750821948
    nanosec: 436022856
  frame_id: dog_imu_link
orientation:
  x: 0.003055745270103216
  y: 0.004377871751785278
  z: 0.0076646581292152405
  w: 0.9999563694000244
orientation_covariance:
- 0.0
- 0.0
- 0.0
- 0.0
- 0.0
- 0.0
- 0.0
- 0.0
- 0.0
angular_velocity:
  x: 0.004261057358235121
  y: 0.0031957929022610188
  z: 0.0010652643395587802
angular_velocity_covariance:
- 0.0
- 0.0
- 0.0
- 0.0
- 0.0
- 0.0
- 0.0
- 0.0
- 0.0
linear_acceleration:
  x: -0.07182604819536209
  y: 0.07182604819536209
  z: 9.702801704406738
linear_acceleration_covariance:
- 1.2122577386364242e-09
- -6.097516269676362e-09
- 0.0010652643395587802
- 0.0
- 0.0
- 0.0
- 0.0
- 0.0
- 0.0
---
header:
  stamp:
    sec: 1750821948
    nanosec: 438058619
  frame_id: dog_imu_link
orientation:
  x: 0.0030556751880794764
  y: 0.004378471057862043
  z: 0.007665887475013733
  w: 0.9999563694000244
orientation_covariance:
- 0.0
- 0.0
- 0.0
- 0.0
- 0.0
- 0.0
- 0.0
- 0.0
- 0.0
angular_velocity:
  x: 0.0031957929022610188
  y: 0.0031957929022610188
  z: 0.0031957929022610188
angular_velocity_covariance:
- 0.0
- 0.0
- 0.0
- 0.0
- 0.0
- 0.0
- 0.0
- 0.0
- 0.0
linear_acceleration:
  x: -0.11581950634717941
  y: 0.06913257390260696
  z: 9.73781681060791
linear_acceleration_covariance:
- 5.977233374920843e-09
- 2.22686735718014e-09
- 0.0031957929022610188
- 0.0
- 0.0
- 0.0
- 0.0
- 0.0
- 0.0
---
header:
  stamp:
    sec: 1750821948
    nanosec: 440010283
  frame_id: dog_imu_link
orientation:
  x: 0.0030567506328225136
  y: 0.004379168152809143
  z: 0.007666046731173992
  w: 0.9999563694000244
orientation_covariance:
- 0.0
- 0.0
- 0.0
- 0.0
- 0.0
- 0.0
- 0.0
- 0.0
- 0.0
angular_velocity:
  x: 0.004261057358235121
  y: 0.0031957929022610188
  z: 0.0021305286791175604
angular_velocity_covariance:
- 0.0
- 0.0
- 0.0
- 0.0
- 0.0
- 0.0
- 0.0
- 0.0
- 0.0
linear_acceleration:
  x: -0.11581950634717941
  y: 0.06913257390260696
  z: 9.73781681060791
linear_acceleration_covariance:
- -5.3236295372016684e-09
- -8.154486863531929e-09
- 0.0021305286791175604
- 0.0
- 0.0
- 0.0
- 0.0
- 0.0
- 0.0
---
header:
  stamp:
    sec: 1750821948
    nanosec: 442029085
  frame_id: dog_imu_link
orientation:
  x: 0.003057879628613591
  y: 0.004379876423627138
  z: 0.007666206918656826
  w: 0.9999563694000244
orientation_covariance:
- 0.0
- 0.0
- 0.0
- 0.0
- 0.0
- 0.0
- 0.0
- 0.0
- 0.0
angular_velocity:
  x: 0.004261057358235121
  y: 0.0031957929022610188
  z: 0.0021305286791175604
angular_velocity_covariance:
- 0.0
- 0.0
- 0.0
- 0.0
- 0.0
- 0.0
- 0.0
- 0.0
- 0.0
linear_acceleration:
  x: -0.09606734663248062
  y: 0.06374561786651611
  z: 9.740509986877441
linear_acceleration_covariance:
- 6.018653131434348e-09
- -3.3478602112779754e-09
- 0.0021305286791175604
- 0.0
- 0.0
- 0.0
- 0.0
- 0.0
- 0.0
---
header:
  stamp:
    sec: 1750821948
    nanosec: 443995205
  frame_id: dog_imu_link
orientation:
  x: 0.0030589213129132986
  y: 0.00438054371625185
  z: 0.007665833458304405
  w: 0.9999563694000244
orientation_covariance:
- 0.0
- 0.0
- 0.0
- 0.0
- 0.0
- 0.0
- 0.0
- 0.0
- 0.0
angular_velocity:
  x: 0.004261057358235121
  y: 0.0031957929022610188
  z: 0.0010652643395587802
angular_velocity_covariance:
- 0.0
- 0.0
- 0.0
- 0.0
- 0.0
- 0.0
- 0.0
- 0.0
- 0.0
linear_acceleration:
  x: -0.08529343456029892
  y: 0.022445641458034515
  z: 9.741408348083496
linear_acceleration_covariance:
- 1.6649902567777985e-09
- 3.049725472159537e-10
- 0.0010652643395587802
- 0.0
- 0.0
- 0.0
- 0.0
- 0.0
- 0.0
---
header:
  stamp:
    sec: 1750821948
    nanosec: 446088015
  frame_id: dog_imu_link
orientation:
  x: 0.0030599029269069433
  y: 0.004381192848086357
  z: 0.007664928212761879
  w: 0.9999563694000244
orientation_covariance:
- 0.0
- 0.0
- 0.0
- 0.0
- 0.0
- 0.0
- 0.0
- 0.0
- 0.0
angular_velocity:
  x: 0.004261057358235121
  y: 0.0031957929022610188
  z: 0.0010652643395587802
angular_velocity_covariance:
- 0.0
- 0.0
- 0.0
- 0.0
- 0.0
- 0.0
- 0.0
- 0.0
- 0.0
linear_acceleration:
  x: -0.10863690078258514
  y: 0.07003039866685867
  z: 9.715371131896973
linear_acceleration_covariance:
- 1.4921240909515632e-09
- -1.549058437078088e-09
- 0.0010652643395587802
- 0.0
- 0.0
- 0.0
- 0.0
- 0.0
- 0.0
---
header:
  stamp:
    sec: 1750821948
    nanosec: 448003875
  frame_id: dog_imu_link
orientation:
  x: 0.0030620619654655457
  y: 0.004381875041872263
  z: 0.00766508374363184
  w: 0.9999563097953796
orientation_covariance:
- 0.0
- 0.0
- 0.0
- 0.0
- 0.0
- 0.0
- 0.0
- 0.0
- 0.0
angular_velocity:
  x: 0.0053263213485479355
  y: 0.0031957929022610188
  z: 0.0021305286791175604
angular_velocity_covariance:
- 0.0
- 0.0
- 0.0
- 0.0
- 0.0
- 0.0
- 0.0
- 0.0
- 0.0
linear_acceleration:
  x: -0.08529343456029892
  y: 0.08798690885305405
  z: 9.743204116821289
linear_acceleration_covariance:
- 1.893711409906018e-09
- -2.7810060920785418e-09
- 0.0021305286791175604
- 0.0
- 0.0
- 0.0
- 0.0
- 0.0
- 0.0
---
header:
  stamp:
    sec: 1750821948
    nanosec: 450014302
  frame_id: dog_imu_link
orientation:
  x: 0.0030643651261925697
  y: 0.004382509738206863
  z: 0.007666304707527161
  w: 0.9999563097953796
orientation_covariance:
- 0.0
- 0.0
- 0.0
- 0.0
- 0.0
- 0.0
- 0.0
- 0.0
- 0.0
angular_velocity:
  x: 0.0053263213485479355
  y: 0.0031957929022610188
  z: 0.0031957929022610188
angular_velocity_covariance:
- 0.0
- 0.0
- 0.0
- 0.0
- 0.0
- 0.0
- 0.0
- 0.0
- 0.0
linear_acceleration:
  x: -0.08529343456029892
  y: 0.08798690885305405
  z: 9.743204116821289
linear_acceleration_covariance:
- 5.938542990691076e-09
- -7.865820772501309e-10
- 0.0031957929022610188
- 0.0
- 0.0
- 0.0
- 0.0
- 0.0
- 0.0
---
header:
  stamp:
    sec: 1750821948
    nanosec: 452019315
  frame_id: dog_imu_link
orientation:
  x: 0.0030660596676170826
  y: 0.0043836236000061035
  z: 0.0076669966802001
  w: 0.9999563097953796
orientation_covariance:
- 0.0
- 0.0
- 0.0
- 0.0
- 0.0
- 0.0
- 0.0
- 0.0
- 0.0
angular_velocity:
  x: 0.004261057358235121
  y: 0.004261057358235121
  z: 0.0021305286791175604
angular_velocity_covariance:
- 0.0
- 0.0
- 0.0
- 0.0
- 0.0
- 0.0
- 0.0
- 0.0
- 0.0
linear_acceleration:
  x: -0.08080431073904037
  y: 0.02693476900458336
  z: 9.741408348083496
linear_acceleration_covariance:
- 3.304778894985816e-09
- -1.7872939794827403e-09
- 0.0021305286791175604
- 0.0
- 0.0
- 0.0
- 0.0
- 0.0
- 0.0
---
header:
  stamp:
    sec: 1750821948
    nanosec: 454031654
  frame_id: dog_imu_link
orientation:
  x: 0.0030666061211377382
  y: 0.004384692758321762
  z: 0.007666627876460552
  w: 0.9999563097953796
orientation_covariance:
- 0.0
- 0.0
- 0.0
- 0.0
- 0.0
- 0.0
- 0.0
- 0.0
- 0.0
angular_velocity:
  x: 0.0031957929022610188
  y: 0.0031957929022610188
  z: 0.0010652643395587802
angular_velocity_covariance:
- 0.0
- 0.0
- 0.0
- 0.0
- 0.0
- 0.0
- 0.0
- 0.0
- 0.0
linear_acceleration:
  x: -0.08619125932455063
  y: 0.06015431880950928
  z: 9.695618629455566
linear_acceleration_covariance:
- -2.9253723887734395e-09
- -8.331586975884875e-09
- 0.0010652643395587802
- 0.0
- 0.0
- 0.0
- 0.0
- 0.0
- 0.0
---
header:
  stamp:
    sec: 1750821948
    nanosec: 455983525
  frame_id: dog_imu_link
orientation:
  x: 0.0030667127575725317
  y: 0.0043852184899151325
  z: 0.007665728218853474
  w: 0.9999563097953796
orientation_covariance:
- 0.0
- 0.0
- 0.0
- 0.0
- 0.0
- 0.0
- 0.0
- 0.0
- 0.0
angular_velocity:
  x: 0.0031957929022610188
  y: 0.0031957929022610188
  z: 0.0010652643395587802
angular_velocity_covariance:
- 0.0
- 0.0
- 0.0
- 0.0
- 0.0
- 0.0
- 0.0
- 0.0
- 0.0
linear_acceleration:
  x: -0.09157821536064148
  y: 0.11671733111143112
  z: 9.712677955627441
linear_acceleration_covariance:
- 6.185085332788276e-09
- 4.424549615578144e-09
- 0.0010652643395587802
- 0.0
- 0.0
- 0.0
- 0.0
- 0.0
- 0.0
---
header:
  stamp:
    sec: 1750821948
    nanosec: 458036060
  frame_id: dog_imu_link
orientation:
  x: 0.0030670559499412775
  y: 0.0043857526034116745
  z: 0.00766482949256897
  w: 0.9999563097953796
orientation_covariance:
- 0.0
- 0.0
- 0.0
- 0.0
- 0.0
- 0.0
- 0.0
- 0.0
- 0.0
angular_velocity:
  x: 0.0031957929022610188
  y: 0.0031957929022610188
  z: 0.0010652643395587802
angular_velocity_covariance:
- 0.0
- 0.0
- 0.0
- 0.0
- 0.0
- 0.0
- 0.0
- 0.0
- 0.0
linear_acceleration:
  x: -0.09157821536064148
  y: 0.11671733111143112
  z: 9.712677955627441
linear_acceleration_covariance:
- 1.7437378208029486e-09
- -4.603864400820612e-09
- 0.0010652643395587802
- 0.0
- 0.0
- 0.0
- 0.0
- 0.0
- 0.0
---
header:
  stamp:
    sec: 1750821948
    nanosec: 459984412
  frame_id: dog_imu_link
orientation:
  x: 0.0030675334855914116
  y: 0.004385100677609444
  z: 0.007664993405342102
  w: 0.9999563097953796
orientation_covariance:
- 0.0
- 0.0
- 0.0
- 0.0
- 0.0
- 0.0
- 0.0
- 0.0
- 0.0
angular_velocity:
  x: 0.0031957929022610188
  y: 0.0021305286791175604
  z: 0.0021305286791175604
angular_velocity_covariance:
- 0.0
- 0.0
- 0.0
- 0.0
- 0.0
- 0.0
- 0.0
- 0.0
- 0.0
linear_acceleration:
  x: -0.05027823522686958
  y: 0.0933738648891449
  z: 9.766547203063965
linear_acceleration_covariance:
- -1.5735400760163998e-09
- 8.131968987079574e-10
- 0.0021305286791175604
- 0.0
- 0.0
- 0.0
- 0.0
- 0.0
- 0.0
---
header:
  stamp:
    sec: 1750821948
    nanosec: 462029827
  frame_id: dog_imu_link
orientation:
  x: 0.003068396123126149
  y: 0.004384386353194714
  z: 0.0076651545241475105
  w: 0.9999563097953796
orientation_covariance:
- 0.0
- 0.0
- 0.0
- 0.0
- 0.0
- 0.0
- 0.0
- 0.0
- 0.0
angular_velocity:
  x: 0.004261057358235121
  y: 0.0021305286791175604
  z: 0.0021305286791175604
angular_velocity_covariance:
- 0.0
- 0.0
- 0.0
- 0.0
- 0.0
- 0.0
- 0.0
- 0.0
- 0.0
linear_acceleration:
  x: -0.0727238729596138
  y: 0.017956512048840523
  z: 9.710882186889648
linear_acceleration_covariance:
- -5.214131792996568e-09
- 1.7933479146137188e-09
- 0.0021305286791175604
- 0.0
- 0.0
- 0.0
- 0.0
- 0.0
- 0.0
---
header:
  stamp:
    sec: 1750821948
    nanosec: 464005437
  frame_id: dog_imu_link
orientation:
  x: 0.003069599624723196
  y: 0.004383676219731569
  z: 0.007665312848985195
  w: 0.9999563097953796
orientation_covariance:
- 0.0
- 0.0
- 0.0
- 0.0
- 0.0
- 0.0
- 0.0
- 0.0
- 0.0
angular_velocity:
  x: 0.004261057358235121
  y: 0.0021305286791175604
  z: 0.0021305286791175604
angular_velocity_covariance:
- 0.0
- 0.0
- 0.0
- 0.0
- 0.0
- 0.0
- 0.0
- 0.0
- 0.0
linear_acceleration:
  x: -0.10594342648983002
  y: 0.015263035893440247
  z: 9.708189010620117
linear_acceleration_covariance:
- 3.2317744036447493e-09
- -2.8927649164955938e-09
- 0.0021305286791175604
- 0.0
- 0.0
- 0.0
- 0.0
- 0.0
- 0.0
---
header:
  stamp:
    sec: 1750821948
    nanosec: 466087900
  frame_id: dog_imu_link
orientation:
  x: 0.0030706841498613358
  y: 0.004383053630590439
  z: 0.007665470242500305
  w: 0.9999563097953796
orientation_covariance:
- 0.0
- 0.0
- 0.0
- 0.0
- 0.0
- 0.0
- 0.0
- 0.0
- 0.0
angular_velocity:
  x: 0.004261057358235121
  y: 0.0021305286791175604
  z: 0.0021305286791175604
angular_velocity_covariance:
- 0.0
- 0.0
- 0.0
- 0.0
- 0.0
- 0.0
- 0.0
- 0.0
- 0.0
linear_acceleration:
  x: -0.09786299616098404
  y: 0.06015431880950928
  z: 9.780912399291992
linear_acceleration_covariance:
- 2.99282620908059e-09
- -1.1690339807302053e-09
- 0.0021305286791175604
- 0.0
- 0.0
- 0.0
- 0.0
- 0.0
- 0.0
---
header:
  stamp:
    sec: 1750821948
    nanosec: 468001321
  frame_id: dog_imu_link
orientation:
  x: 0.0030717961490154266
  y: 0.004382481332868338
  z: 0.007664562202990055
  w: 0.9999563097953796
orientation_covariance:
- 0.0
- 0.0
- 0.0
- 0.0
- 0.0
- 0.0
- 0.0
- 0.0
- 0.0
angular_velocity:
  x: 0.004261057358235121
  y: 0.0021305286791175604
  z: 0.0010652643395587802
angular_velocity_covariance:
- 0.0
- 0.0
- 0.0
- 0.0
- 0.0
- 0.0
- 0.0
- 0.0
- 0.0
linear_acceleration:
  x: -0.09786299616098404
  y: 0.06015431880950928
  z: 9.780912399291992
linear_acceleration_covariance:
- -3.2570972585688196e-09
- 1.4869110387394358e-09
- 0.0010652643395587802
- 0.0
- 0.0
- 0.0
- 0.0
- 0.0
- 0.0
---
header:
  stamp:
    sec: 1750821948
    nanosec: 470079097
  frame_id: dog_imu_link
orientation:
  x: 0.003072868101298809
  y: 0.004384054336696863
  z: 0.007663660682737827
  w: 0.9999563097953796
orientation_covariance:
- 0.0
- 0.0
- 0.0
- 0.0
- 0.0
- 0.0
- 0.0
- 0.0
- 0.0
angular_velocity:
  x: 0.004261057358235121
  y: 0.004261057358235121
  z: 0.0010652643395587802
angular_velocity_covariance:
- 0.0
- 0.0
- 0.0
- 0.0
- 0.0
- 0.0
- 0.0
- 0.0
- 0.0
linear_acceleration:
  x: -0.08978256583213806
  y: 0.043095629662275314
  z: 9.730634689331055
linear_acceleration_covariance:
- -2.3895319056777e-10
- 1.919669312400174e-09
- 0.0010652643395587802
- 0.0
- 0.0
- 0.0
- 0.0
- 0.0
- 0.0
---
header:
  stamp:
    sec: 1750821948
    nanosec: 471996611
  frame_id: dog_imu_link
orientation:
  x: 0.0030739197973161936
  y: 0.004386150278151035
  z: 0.007662760093808174
  w: 0.9999563097953796
orientation_covariance:
- 0.0
- 0.0
- 0.0
- 0.0
- 0.0
- 0.0
- 0.0
- 0.0
- 0.0
angular_velocity:
  x: 0.004261057358235121
  y: 0.0053263213485479355
  z: 0.0010652643395587802
angular_velocity_covariance:
- 0.0
- 0.0
- 0.0
- 0.0
- 0.0
- 0.0
- 0.0
- 0.0
- 0.0
linear_acceleration:
  x: -0.08529343456029892
  y: 0.049380410462617874
  z: 9.726144790649414
linear_acceleration_covariance:
- 3.903816825356898e-09
- -4.6153427746276066e-09
- 0.0010652643395587802
- 0.0
- 0.0
- 0.0
- 0.0
- 0.0
- 0.0
---
header:
  stamp:
    sec: 1750821948
    nanosec: 474012016
  frame_id: dog_imu_link
orientation:
  x: 0.0030744108371436596
  y: 0.004388770088553429
  z: 0.007661331444978714
  w: 0.9999563097953796
orientation_covariance:
- 0.0
- 0.0
- 0.0
- 0.0
- 0.0
- 0.0
- 0.0
- 0.0
- 0.0
angular_velocity:
  x: 0.0031957929022610188
  y: 0.0053263213485479355
  z: 0.0
angular_velocity_covariance:
- 0.0
- 0.0
- 0.0
- 0.0
- 0.0
- 0.0
- 0.0
- 0.0
- 0.0
linear_acceleration:
  x: -0.09068039059638977
  y: 0.03501519933342934
  z: 9.716269493103027
linear_acceleration_covariance:
- -4.820983612319196e-10
- -1.1419073464580265e-09
- 0.0
- 0.0
- 0.0
- 0.0
- 0.0
- 0.0
- 0.0
---
header:
  stamp:
    sec: 1750821948
    nanosec: 476009625
  frame_id: dog_imu_link
orientation:
  x: 0.003074322361499071
  y: 0.00439141970127821
  z: 0.007659372873604298
  w: 0.9999563097953796
orientation_covariance:
- 0.0
- 0.0
- 0.0
- 0.0
- 0.0
- 0.0
- 0.0
- 0.0
- 0.0
angular_velocity:
  x: 0.0031957929022610188
  y: 0.0053263213485479355
  z: 0.0
angular_velocity_covariance:
- 0.0
- 0.0
- 0.0
- 0.0
- 0.0
- 0.0
- 0.0
- 0.0
- 0.0
linear_acceleration:
  x: -0.11222820729017258
  y: 0.049380410462617874
  z: 9.698312759399414
linear_acceleration_covariance:
- 1.3228282913502198e-09
- 1.7823291453833434e-10
- 0.0
- 0.0
- 0.0
- 0.0
- 0.0
- 0.0
- 0.0
---
header:
  stamp:
    sec: 1750821948
    nanosec: 478074242
  frame_id: dog_imu_link
orientation:
  x: 0.0030731831211596727
  y: 0.0043930853717029095
  z: 0.007657414302229881
  w: 0.9999563097953796
orientation_covariance:
- 0.0
- 0.0
- 0.0
- 0.0
- 0.0
- 0.0
- 0.0
- 0.0
- 0.0
angular_velocity:
  x: 0.0021305286791175604
  y: 0.004261057358235121
  z: 0.0
angular_velocity_covariance:
- 0.0
- 0.0
- 0.0
- 0.0
- 0.0
- 0.0
- 0.0
- 0.0
- 0.0
linear_acceleration:
  x: -0.11222820729017258
  y: 0.049380410462617874
  z: 9.698312759399414
linear_acceleration_covariance:
- 6.28112672984571e-09
- 5.885004039640762e-09
- 0.0
- 0.0
- 0.0
- 0.0
- 0.0
- 0.0
- 0.0
---
header:
  stamp:
    sec: 1750821948
    nanosec: 480000890
  frame_id: dog_imu_link
orientation:
  x: 0.0030720834620296955
  y: 0.004394855350255966
  z: 0.007657586596906185
  w: 0.9999563097953796
orientation_covariance:
- 0.0
- 0.0
- 0.0
- 0.0
- 0.0
- 0.0
- 0.0
- 0.0
- 0.0
angular_velocity:
  x: 0.0021305286791175604
  y: 0.004261057358235121
  z: 0.0021305286791175604
angular_velocity_covariance:
- 0.0
- 0.0
- 0.0
- 0.0
- 0.0
- 0.0
- 0.0
- 0.0
- 0.0
linear_acceleration:
  x: -0.1256955862045288
  y: 0.05835866555571556
  z: 9.753080368041992
linear_acceleration_covariance:
- -2.6364279648305455e-09
- -2.2498181095897962e-09
- 0.0021305286791175604
- 0.0
- 0.0
- 0.0
- 0.0
- 0.0
- 0.0
---
header:
  stamp:
    sec: 1750821948
    nanosec: 482025911
  frame_id: dog_imu_link
orientation:
  x: 0.0030710147693753242
  y: 0.004396689124405384
  z: 0.007657758891582489
  w: 0.9999563097953796
orientation_covariance:
- 0.0
- 0.0
- 0.0
- 0.0
- 0.0
- 0.0
- 0.0
- 0.0
- 0.0
angular_velocity:
  x: 0.0021305286791175604
  y: 0.004261057358235121
  z: 0.0021305286791175604
angular_velocity_covariance:
- 0.0
- 0.0
- 0.0
- 0.0
- 0.0
- 0.0
- 0.0
- 0.0
- 0.0
linear_acceleration:
  x: -0.08888474106788635
  y: 0.05656301602721214
  z: 9.754875183105469
linear_acceleration_covariance:
- -2.348530481199873e-09
- 3.1118410070973823e-09
- 0.0021305286791175604
- 0.0
- 0.0
- 0.0
- 0.0
- 0.0
- 0.0
---
header:
  stamp:
    sec: 1750821948
    nanosec: 484019126
  frame_id: dog_imu_link
orientation:
  x: 0.003069991711527109
  y: 0.004397938493639231
  z: 0.007658462040126324
  w: 0.9999563097953796
orientation_covariance:
- 0.0
- 0.0
- 0.0
- 0.0
- 0.0
- 0.0
- 0.0
- 0.0
- 0.0
angular_velocity:
  x: 0.0021305286791175604
  y: 0.0031957929022610188
  z: 0.0031957929022610188
angular_velocity_covariance:
- 0.0
- 0.0
- 0.0
- 0.0
- 0.0
- 0.0
- 0.0
- 0.0
- 0.0
linear_acceleration:
  x: -0.0933738648891449
  y: 0.07451952993869781
  z: 9.764751434326172
linear_acceleration_covariance:
- 2.581851621386022e-09
- 2.040402291569876e-09
- 0.0031957929022610188
- 0.0
- 0.0
- 0.0
- 0.0
- 0.0
- 0.0
---
header:
  stamp:
    sec: 1750821948
    nanosec: 486059180
  frame_id: dog_imu_link
orientation:
  x: 0.0030690582934767008
  y: 0.004398626741021872
  z: 0.007659696042537689
  w: 0.9999563097953796
orientation_covariance:
- 0.0
- 0.0
- 0.0
- 0.0
- 0.0
- 0.0
- 0.0
- 0.0
- 0.0
angular_velocity:
  x: 0.0021305286791175604
  y: 0.0031957929022610188
  z: 0.0031957929022610188
angular_velocity_covariance:
- 0.0
- 0.0
- 0.0
- 0.0
- 0.0
- 0.0
- 0.0
- 0.0
- 0.0
linear_acceleration:
  x: -0.0933738648891449
  y: 0.07451952993869781
  z: 9.764751434326172
linear_acceleration_covariance:
- 8.133523854425562e-10
- -5.935837932291577e-10
- 0.0031957929022610188
- 0.0
- 0.0
- 0.0
- 0.0
- 0.0
- 0.0
---
header:
  stamp:
    sec: 1750821948
    nanosec: 487998317
  frame_id: dog_imu_link
orientation:
  x: 0.003069337923079729
  y: 0.004397203680127859
  z: 0.0076598552986979485
  w: 0.9999563097953796
orientation_covariance:
- 0.0
- 0.0
- 0.0
- 0.0
- 0.0
- 0.0
- 0.0
- 0.0
- 0.0
angular_velocity:
  x: 0.0031957929022610188
  y: 0.0010652643395587802
  z: 0.0021305286791175604
angular_velocity_covariance:
- 0.0
- 0.0
- 0.0
- 0.0
- 0.0
- 0.0
- 0.0
- 0.0
- 0.0
linear_acceleration:
  x: -0.1032499447464943
  y: 0.09786299616098404
  z: 9.775525093078613
linear_acceleration_covariance:
- -4.083616111927313e-09
- 2.683824495974818e-09
- 0.0021305286791175604
- 0.0
- 0.0
- 0.0
- 0.0
- 0.0
- 0.0
---
header:
  stamp:
    sec: 1750821948
    nanosec: 490000171
  frame_id: dog_imu_link
orientation:
  x: 0.003071815939620137
  y: 0.004394794814288616
  z: 0.007660001516342163
  w: 0.9999563097953796
orientation_covariance:
- 0.0
- 0.0
- 0.0
- 0.0
- 0.0
- 0.0
- 0.0
- 0.0
- 0.0
angular_velocity:
  x: 0.0053263213485479355
  y: 0.0
  z: 0.0021305286791175604
angular_velocity_covariance:
- 0.0
- 0.0
- 0.0
- 0.0
- 0.0
- 0.0
- 0.0
- 0.0
- 0.0
linear_acceleration:
  x: -0.11851298063993454
  y: 0.0736217051744461
  z: 9.732429504394531
linear_acceleration_covariance:
- -3.725172170732094e-09
- 1.8874795060241922e-09
- 0.0021305286791175604
- 0.0
- 0.0
- 0.0
- 0.0
- 0.0
- 0.0
---
header:
  stamp:
    sec: 1750821948
    nanosec: 492013594
  frame_id: dog_imu_link
orientation:
  x: 0.0030753540340811014
  y: 0.004392447881400585
  z: 0.007660675793886185
  w: 0.9999563097953796
orientation_covariance:
- 0.0
- 0.0
- 0.0
- 0.0
- 0.0
- 0.0
- 0.0
- 0.0
- 0.0
angular_velocity:
  x: 0.0074568502604961395
  y: 0.0
  z: 0.0031957929022610188
angular_velocity_covariance:
- 0.0
- 0.0
- 0.0
- 0.0
- 0.0
- 0.0
- 0.0
- 0.0
- 0.0
linear_acceleration:
  x: -0.11043255031108856
  y: 0.042197804898023605
  z: 9.780014991760254
linear_acceleration_covariance:
- -3.4801350690116806e-09
- -6.530181284603032e-09
- 0.0031957929022610188
- 0.0
- 0.0
- 0.0
- 0.0
- 0.0
- 0.0
---
header:
  stamp:
    sec: 1750821948
    nanosec: 494129498
  frame_id: dog_imu_link
orientation:
  x: 0.003079332411289215
  y: 0.004390626214444637
  z: 0.007661880925297737
  w: 0.9999563097953796
orientation_covariance:
- 0.0
- 0.0
- 0.0
- 0.0
- 0.0
- 0.0
- 0.0
- 0.0
- 0.0
angular_velocity:
  x: 0.0063915858045220375
  y: 0.0010652643395587802
  z: 0.0031957929022610188
angular_velocity_covariance:
- 0.0
- 0.0
- 0.0
- 0.0
- 0.0
- 0.0
- 0.0
- 0.0
- 0.0
linear_acceleration:
  x: -0.07990647852420807
  y: 0.048482585698366165
  z: 9.752182006835938
linear_acceleration_covariance:
- -1.7368687599272903e-09
- -4.354737015432875e-09
- 0.0031957929022610188
- 0.0
- 0.0
- 0.0
- 0.0
- 0.0
- 0.0
---
header:
  stamp:
    sec: 1750821948
    nanosec: 496009441
  frame_id: dog_imu_link
orientation:
  x: 0.0030827198643237352
  y: 0.004389237146824598
  z: 0.00766309117898345
  w: 0.9999562501907349
orientation_covariance:
- 0.0
- 0.0
- 0.0
- 0.0
- 0.0
- 0.0
- 0.0
- 0.0
- 0.0
angular_velocity:
  x: 0.0063915858045220375
  y: 0.0010652643395587802
  z: 0.0031957929022610188
angular_velocity_covariance:
- 0.0
- 0.0
- 0.0
- 0.0
- 0.0
- 0.0
- 0.0
- 0.0
- 0.0
linear_acceleration:
  x: -0.07990647852420807
  y: 0.048482585698366165
  z: 9.752182006835938
linear_acceleration_covariance:
- -5.244293888040374e-10
- -1.14762788161471e-09
- 0.0031957929022610188
- 0.0
- 0.0
- 0.0
- 0.0
- 0.0
- 0.0
---
header:
  stamp:
    sec: 1750821948
    nanosec: 498172453
  frame_id: dog_imu_link
orientation:
  x: 0.003086068667471409
  y: 0.0043888455256819725
  z: 0.007663238327950239
  w: 0.9999562501907349
orientation_covariance:
- 0.0
- 0.0
- 0.0
- 0.0
- 0.0
- 0.0
- 0.0
- 0.0
- 0.0
angular_velocity:
  x: 0.0063915858045220375
  y: 0.0021305286791175604
  z: 0.0021305286791175604
angular_velocity_covariance:
- 0.0
- 0.0
- 0.0
- 0.0
- 0.0
- 0.0
- 0.0
- 0.0
- 0.0
linear_acceleration:
  x: -0.08170213550329208
  y: 0.054767362773418427
  z: 9.750386238098145
linear_acceleration_covariance:
- -2.7584463602181586e-09
- -7.581641092713198e-09
- 0.0021305286791175604
- 0.0
- 0.0
- 0.0
- 0.0
- 0.0
- 0.0
---
header:
  stamp:
    sec: 1750821948
    nanosec: 500075372
  frame_id: dog_imu_link
orientation:
  x: 0.0030884086154401302
  y: 0.004388316534459591
  z: 0.007662326563149691
  w: 0.9999562501907349
orientation_covariance:
- 0.0
- 0.0
- 0.0
- 0.0
- 0.0
- 0.0
- 0.0
- 0.0
- 0.0
angular_velocity:
  x: 0.0053263213485479355
  y: 0.0021305286791175604
  z: 0.0010652643395587802
angular_velocity_covariance:
- 0.0
- 0.0
- 0.0
- 0.0
- 0.0
- 0.0
- 0.0
- 0.0
- 0.0
linear_acceleration:
  x: -0.055665191262960434
  y: 0.07990647852420807
  z: 9.699210166931152
linear_acceleration_covariance:
- 3.821070126974746e-09
- -3.4050431363397138e-09
- 0.0010652643395587802
- 0.0
- 0.0
- 0.0
- 0.0
- 0.0
- 0.0
---
header:
  stamp:
    sec: 1750821948
    nanosec: 502092044
  frame_id: dog_imu_link
orientation:
  x: 0.003090810729190707
  y: 0.004388189408928156
  z: 0.007660884875804186
  w: 0.9999562501907349
orientation_covariance:
- 0.0
- 0.0
- 0.0
- 0.0
- 0.0
- 0.0
- 0.0
- 0.0
- 0.0
angular_velocity:
  x: 0.0053263213485479355
  y: 0.0031957929022610188
  z: 0.0
angular_velocity_covariance:
- 0.0
- 0.0
- 0.0
- 0.0
- 0.0
- 0.0
- 0.0
- 0.0
- 0.0
linear_acceleration:
  x: -0.05386953800916672
  y: 0.07451952993869781
  z: 9.683947563171387
linear_acceleration_covariance:
- 5.442597483806821e-10
- 5.94872018311321e-09
- 0.0
- 0.0
- 0.0
- 0.0
- 0.0
- 0.0
- 0.0
---
header:
  stamp:
    sec: 1750821948
    nanosec: 503999441
  frame_id: dog_imu_link
orientation:
  x: 0.003092652652412653
  y: 0.004388514440506697
  z: 0.007658912800252438
  w: 0.9999563097953796
orientation_covariance:
- 0.0
- 0.0
- 0.0
- 0.0
- 0.0
- 0.0
- 0.0
- 0.0
- 0.0
angular_velocity:
  x: 0.004261057358235121
  y: 0.0031957929022610188
  z: 0.0
angular_velocity_covariance:
- 0.0
- 0.0
- 0.0
- 0.0
- 0.0
- 0.0
- 0.0
- 0.0
- 0.0
linear_acceleration:
  x: -0.08798690885305405
  y: 0.016160860657691956
  z: 9.75397777557373
linear_acceleration_covariance:
- 7.324864048641189e-10
- -1.0000280603605916e-08
- 0.0
- 0.0
- 0.0
- 0.0
- 0.0
- 0.0
- 0.0
---
header:
  stamp:
    sec: 1750821948
    nanosec: 506012926
  frame_id: dog_imu_link
orientation:
  x: 0.003093775361776352
  y: 0.004388866946101189
  z: 0.0076569439843297005
  w: 0.9999562501907349
orientation_covariance:
- 0.0
- 0.0
- 0.0
- 0.0
- 0.0
- 0.0
- 0.0
- 0.0
- 0.0
angular_velocity:
  x: 0.004261057358235121
  y: 0.0031957929022610188
  z: 0.0
angular_velocity_covariance:
- 0.0
- 0.0
- 0.0
- 0.0
- 0.0
- 0.0
- 0.0
- 0.0
- 0.0
linear_acceleration:
  x: -0.08798690885305405
  y: 0.016160860657691956
  z: 9.75397777557373
linear_acceleration_covariance:
- -9.763740926871378e-10
- -7.630964193872103e-10
- 0.0
- 0.0
- 0.0
- 0.0
- 0.0
- 0.0
- 0.0
---
header:
  stamp:
    sec: 1750821948
    nanosec: 508024584
  frame_id: dog_imu_link
orientation:
  x: 0.003092795377597213
  y: 0.004390332382172346
  z: 0.0076560527086257935
  w: 0.9999562501907349
orientation_covariance:
- 0.0
- 0.0
- 0.0
- 0.0
- 0.0
- 0.0
- 0.0
- 0.0
- 0.0
angular_velocity:
  x: 0.0021305286791175604
  y: 0.004261057358235121
  z: 0.0010652643395587802
angular_velocity_covariance:
- 0.0
- 0.0
- 0.0
- 0.0
- 0.0
- 0.0
- 0.0
- 0.0
- 0.0
linear_acceleration:
  x: -0.10145429521799088
  y: 0.07721300423145294
  z: 9.734225273132324
linear_acceleration_covariance:
- 3.5343523663300402e-09
- 3.8627090415133125e-10
- 0.0010652643395587802
- 0.0
- 0.0
- 0.0
- 0.0
- 0.0
- 0.0
---
header:
  stamp:
    sec: 1750821948
    nanosec: 510038379
  frame_id: dog_imu_link
orientation:
  x: 0.0030918505508452654
  y: 0.004392928443849087
  z: 0.00765622965991497
  w: 0.9999562501907349
orientation_covariance:
- 0.0
- 0.0
- 0.0
- 0.0
- 0.0
- 0.0
- 0.0
- 0.0
- 0.0
angular_velocity:
  x: 0.0021305286791175604
  y: 0.0053263213485479355
  z: 0.0021305286791175604
angular_velocity_covariance:
- 0.0
- 0.0
- 0.0
- 0.0
- 0.0
- 0.0
- 0.0
- 0.0
- 0.0
linear_acceleration:
  x: -0.10235211998224258
  y: 0.0628477931022644
  z: 9.76205825805664
linear_acceleration_covariance:
- -2.631681983444878e-09
- 2.4559838607274287e-09
- 0.0021305286791175604
- 0.0
- 0.0
- 0.0
- 0.0
- 0.0
- 0.0
---
header:
  stamp:
    sec: 1750821948
    nanosec: 511995643
  frame_id: dog_imu_link
orientation:
  x: 0.0030908919870853424
  y: 0.004394975490868092
  z: 0.007657469250261784
  w: 0.9999562501907349
orientation_covariance:
- 0.0
- 0.0
- 0.0
- 0.0
- 0.0
- 0.0
- 0.0
- 0.0
- 0.0
angular_velocity:
  x: 0.0021305286791175604
  y: 0.004261057358235121
  z: 0.004261057358235121
angular_velocity_covariance:
- 0.0
- 0.0
- 0.0
- 0.0
- 0.0
- 0.0
- 0.0
- 0.0
- 0.0
linear_acceleration:
  x: -0.03501519933342934
  y: 0.022445641458034515
  z: 9.69741439819336
linear_acceleration_covariance:
- 6.823640319453261e-09
- 7.370101196002565e-10
- 0.004261057358235121
- 0.0
- 0.0
- 0.0
- 0.0
- 0.0
- 0.0
---
header:
  stamp:
    sec: 1750821948
    nanosec: 514037550
  frame_id: dog_imu_link
orientation:
  x: 0.0030898128170520067
  y: 0.00439628167077899
  z: 0.00766030652448535
  w: 0.9999562501907349
orientation_covariance:
- 0.0
- 0.0
- 0.0
- 0.0
- 0.0
- 0.0
- 0.0
- 0.0
- 0.0
angular_velocity:
  x: 0.0021305286791175604
  y: 0.004261057358235121
  z: 0.0053263213485479355
angular_velocity_covariance:
- 0.0
- 0.0
- 0.0
- 0.0
- 0.0
- 0.0
- 0.0
- 0.0
- 0.0
linear_acceleration:
  x: -0.03501519933342934
  y: 0.022445641458034515
  z: 9.69741439819336
linear_acceleration_covariance:
- 5.566151983771306e-09
- 2.2871229909959823e-10
- 0.0053263213485479355
- 0.0
- 0.0
- 0.0
- 0.0
- 0.0
- 0.0
---
header:
  stamp:
    sec: 1750821948
    nanosec: 516044857
  frame_id: dog_imu_link
orientation:
  x: 0.0030887087341398
  y: 0.004397455602884293
  z: 0.007663676515221596
  w: 0.9999561905860901
orientation_covariance:
- 0.0
- 0.0
- 0.0
- 0.0
- 0.0
- 0.0
- 0.0
- 0.0
- 0.0
angular_velocity:
  x: 0.0021305286791175604
  y: 0.004261057358235121
  z: 0.0053263213485479355
angular_velocity_covariance:
- 0.0
- 0.0
- 0.0
- 0.0
- 0.0
- 0.0
- 0.0
- 0.0
- 0.0
linear_acceleration:
  x: -0.04668693244457245
  y: 0.049380410462617874
  z: 9.73781681060791
linear_acceleration_covariance:
- 1.9652617311294307e-09
- 5.756308207871541e-10
- 0.0053263213485479355
- 0.0
- 0.0
- 0.0
- 0.0
- 0.0
- 0.0
---
header:
  stamp:
    sec: 1750821948
    nanosec: 518025428
  frame_id: dog_imu_link
orientation:
  x: 0.003086609998717904
  y: 0.0043987915851175785
  z: 0.0076659852638840675
  w: 0.9999561905860901
orientation_covariance:
- 0.0
- 0.0
- 0.0
- 0.0
- 0.0
- 0.0
- 0.0
- 0.0
- 0.0
angular_velocity:
  x: 0.0010652643395587802
  y: 0.004261057358235121
  z: 0.004261057358235121
angular_velocity_covariance:
- 0.0
- 0.0
- 0.0
- 0.0
- 0.0
- 0.0
- 0.0
- 0.0
- 0.0
linear_acceleration:
  x: -0.1346738487482071
  y: 0.07451952993869781
  z: 9.762955665588379
linear_acceleration_covariance:
- -2.2695958445950737e-09
- -8.611359958443643e-10
- 0.004261057358235121
- 0.0
- 0.0
- 0.0
- 0.0
- 0.0
- 0.0
---
header:
  stamp:
    sec: 1750821948
    nanosec: 519997429
  frame_id: dog_imu_link
orientation:
  x: 0.0030846083536744118
  y: 0.004401370417326689
  z: 0.00766723183915019
  w: 0.9999561309814453
orientation_covariance:
- 0.0
- 0.0
- 0.0
- 0.0
- 0.0
- 0.0
- 0.0
- 0.0
- 0.0
angular_velocity:
  x: 0.0010652643395587802
  y: 0.0053263213485479355
  z: 0.0031957929022610188
angular_velocity_covariance:
- 0.0
- 0.0
- 0.0
- 0.0
- 0.0
- 0.0
- 0.0
- 0.0
- 0.0
linear_acceleration:
  x: -0.0933738648891449
  y: 0.09965864568948746
  z: 9.710882186889648
linear_acceleration_covariance:
- 2.0367543207555627e-09
- 8.930409745033785e-10
- 0.0031957929022610188
- 0.0
- 0.0
- 0.0
- 0.0
- 0.0
- 0.0
---
header:
  stamp:
    sec: 1750821948
    nanosec: 522048018
  frame_id: dog_imu_link
orientation:
  x: 0.0030827238224446774
  y: 0.004403423052281141
  z: 0.007667945232242346
  w: 0.9999561309814453
orientation_covariance:
- 0.0
- 0.0
- 0.0
- 0.0
- 0.0
- 0.0
- 0.0
- 0.0
- 0.0
angular_velocity:
  x: 0.0010652643395587802
  y: 0.004261057358235121
  z: 0.0021305286791175604
angular_velocity_covariance:
- 0.0
- 0.0
- 0.0
- 0.0
- 0.0
- 0.0
- 0.0
- 0.0
- 0.0
linear_acceleration:
  x: -0.07541735470294952
  y: 0.05297171324491501
  z: 9.706393241882324
linear_acceleration_covariance:
- 3.727696373800882e-09
- -1.0436415065484539e-09
- 0.0021305286791175604
- 0.0
- 0.0
- 0.0
- 0.0
- 0.0
- 0.0
---
header:
  stamp:
    sec: 1750821948
    nanosec: 523993467
  frame_id: dog_imu_link
orientation:
  x: 0.003080799011513591
  y: 0.004404899198561907
  z: 0.007667591329663992
  w: 0.9999561309814453
orientation_covariance:
- 0.0
- 0.0
- 0.0
- 0.0
- 0.0
- 0.0
- 0.0
- 0.0
- 0.0
angular_velocity:
  x: 0.0010652643395587802
  y: 0.004261057358235121
  z: 0.0010652643395587802
angular_velocity_covariance:
- 0.0
- 0.0
- 0.0
- 0.0
- 0.0
- 0.0
- 0.0
- 0.0
- 0.0
linear_acceleration:
  x: -0.07541735470294952
  y: 0.05297171324491501
  z: 9.706393241882324
linear_acceleration_covariance:
- 4.512242579579606e-09
- 3.1991318483193254e-09
- 0.0010652643395587802
- 0.0
- 0.0
- 0.0
- 0.0
- 0.0
- 0.0
---
header:
  stamp:
    sec: 1750821948
    nanosec: 526040693
  frame_id: dog_imu_link
orientation:
  x: 0.0030789084266871214
  y: 0.004406399559229612
  z: 0.007666704710572958
  w: 0.9999561309814453
orientation_covariance:
- 0.0
- 0.0
- 0.0
- 0.0
- 0.0
- 0.0
- 0.0
- 0.0
- 0.0
angular_velocity:
  x: 0.0010652643395587802
  y: 0.004261057358235121
  z: 0.0010652643395587802
angular_velocity_covariance:
- 0.0
- 0.0
- 0.0
- 0.0
- 0.0
- 0.0
- 0.0
- 0.0
- 0.0
linear_acceleration:
  x: -0.09606734663248062
  y: 0.07631517946720123
  z: 9.715371131896973
linear_acceleration_covariance:
- 4.2737596794850674e-10
- 1.9604189382960158e-09
- 0.0010652643395587802
- 0.0
- 0.0
- 0.0
- 0.0
- 0.0
- 0.0
---
header:
  stamp:
    sec: 1750821948
    nanosec: 528038206
  frame_id: dog_imu_link
orientation:
  x: 0.003079009708017111
  y: 0.0044066403061151505
  z: 0.007666254881769419
  w: 0.9999561309814453
orientation_covariance:
- 0.0
- 0.0
- 0.0
- 0.0
- 0.0
- 0.0
- 0.0
- 0.0
- 0.0
angular_velocity:
  x: 0.0031957929022610188
  y: 0.0031957929022610188
  z: 0.0010652643395587802
angular_velocity_covariance:
- 0.0
- 0.0
- 0.0
- 0.0
- 0.0
- 0.0
- 0.0
- 0.0
- 0.0
linear_acceleration:
  x: -0.09786299616098404
  y: 0.03501519933342934
  z: 9.77013874053955
linear_acceleration_covariance:
- -4.123962060731401e-09
- 2.4682202948156373e-09
- 0.0010652643395587802
- 0.0
- 0.0
- 0.0
- 0.0
- 0.0
- 0.0
---
header:
  stamp:
    sec: 1750821948
    nanosec: 530092574
  frame_id: dog_imu_link
orientation:
  x: 0.003080200171098113
  y: 0.0044063120149075985
  z: 0.0076659624464809895
  w: 0.9999561309814453
orientation_covariance:
- 0.0
- 0.0
- 0.0
- 0.0
- 0.0
- 0.0
- 0.0
- 0.0
- 0.0
angular_velocity:
  x: 0.004261057358235121
  y: 0.0021305286791175604
  z: 0.0021305286791175604
angular_velocity_covariance:
- 0.0
- 0.0
- 0.0
- 0.0
- 0.0
- 0.0
- 0.0
- 0.0
- 0.0
linear_acceleration:
  x: -0.054767362773418427
  y: -0.002693476853892207
  z: 9.741408348083496
linear_acceleration_covariance:
- -1.3732855963510815e-09
- -1.1356326989897525e-10
- 0.0021305286791175604
- 0.0
- 0.0
- 0.0
- 0.0
- 0.0
- 0.0
---
header:
  stamp:
    sec: 1750821948
    nanosec: 532052895
  frame_id: dog_imu_link
orientation:
  x: 0.003081703558564186
  y: 0.0044045583344995975
  z: 0.0076661137863993645
  w: 0.9999561905860901
orientation_covariance:
- 0.0
- 0.0
- 0.0
- 0.0
- 0.0
- 0.0
- 0.0
- 0.0
- 0.0
angular_velocity:
  x: 0.0053263213485479355
  y: 0.0
  z: 0.0021305286791175604
angular_velocity_covariance:
- 0.0
- 0.0
- 0.0
- 0.0
- 0.0
- 0.0
- 0.0
- 0.0
- 0.0
linear_acceleration:
  x: -0.07182604819536209
  y: 0.05925649031996727
  z: 9.708189010620117
linear_acceleration_covariance:
- 4.736952163852948e-09
- -5.313463447009781e-09
- 0.0021305286791175604
- 0.0
- 0.0
- 0.0
- 0.0
- 0.0
- 0.0
---
header:
  stamp:
    sec: 1750821948
    nanosec: 534063418
  frame_id: dog_imu_link
orientation:
  x: 0.0030838006641715765
  y: 0.004401704296469688
  z: 0.0076662590727210045
  w: 0.9999561905860901
orientation_covariance:
- 0.0
- 0.0
- 0.0
- 0.0
- 0.0
- 0.0
- 0.0
- 0.0
- 0.0
angular_velocity:
  x: 0.0053263213485479355
  y: 0.0
  z: 0.0021305286791175604
angular_velocity_covariance:
- 0.0
- 0.0
- 0.0
- 0.0
- 0.0
- 0.0
- 0.0
- 0.0
- 0.0
linear_acceleration:
  x: -0.07182604819536209
  y: 0.05925649031996727
  z: 9.708189010620117
linear_acceleration_covariance:
- -6.97034296948118e-09
- -2.199915360989735e-09
- 0.0021305286791175604
- 0.0
- 0.0
- 0.0
- 0.0
- 0.0
- 0.0
---
header:
  stamp:
    sec: 1750821948
    nanosec: 535999905
  frame_id: dog_imu_link
orientation:
  x: 0.00308588775806129
  y: 0.004398924298584461
  z: 0.007666405290365219
  w: 0.9999561905860901
orientation_covariance:
- 0.0
- 0.0
- 0.0
- 0.0
- 0.0
- 0.0
- 0.0
- 0.0
- 0.0
angular_velocity:
  x: 0.0053263213485479355
  y: 0.0
  z: 0.0021305286791175604
angular_velocity_covariance:
- 0.0
- 0.0
- 0.0
- 0.0
- 0.0
- 0.0
- 0.0
- 0.0
- 0.0
linear_acceleration:
  x: -0.10863690078258514
  y: 0.042197804898023605
  z: 9.7791166305542
linear_acceleration_covariance:
- -5.778145517609801e-09
- 3.2247959858011654e-09
- 0.0021305286791175604
- 0.0
- 0.0
- 0.0
- 0.0
- 0.0
- 0.0
---
header:
  stamp:
    sec: 1750821948
    nanosec: 538048158
  frame_id: dog_imu_link
orientation:
  x: 0.003087932476773858
  y: 0.004397179000079632
  z: 0.007666554301977158
  w: 0.9999561905860901
orientation_covariance:
- 0.0
- 0.0
- 0.0
- 0.0
- 0.0
- 0.0
- 0.0
- 0.0
- 0.0
angular_velocity:
  x: 0.0053263213485479355
  y: 0.0010652643395587802
  z: 0.0021305286791175604
angular_velocity_covariance:
- 0.0
- 0.0
- 0.0
- 0.0
- 0.0
- 0.0
- 0.0
- 0.0
- 0.0
linear_acceleration:
  x: -0.06643909960985184
  y: 0.03860650211572647
  z: 9.75936508178711
linear_acceleration_covariance:
- 3.5267517795034564e-09
- -1.2362263990262079e-11
- 0.0021305286791175604
- 0.0
- 0.0
- 0.0
- 0.0
- 0.0
- 0.0
---
header:
  stamp:
    sec: 1750821948
    nanosec: 540018549
  frame_id: dog_imu_link
orientation:
  x: 0.003089985577389598
  y: 0.004395331721752882
  z: 0.007666703313589096
  w: 0.9999561905860901
orientation_covariance:
- 0.0
- 0.0
- 0.0
- 0.0
- 0.0
- 0.0
- 0.0
- 0.0
- 0.0
angular_velocity:
  x: 0.0053263213485479355
  y: 0.0010652643395587802
  z: 0.0021305286791175604
angular_velocity_covariance:
- 0.0
- 0.0
- 0.0
- 0.0
- 0.0
- 0.0
- 0.0
- 0.0
- 0.0
linear_acceleration:
  x: -0.028730420395731926
  y: 0.07631517946720123
  z: 9.781810760498047
linear_acceleration_covariance:
- -2.064890702868638e-09
- 1.7746009106645033e-09
- 0.0021305286791175604
- 0.0
- 0.0
- 0.0
- 0.0
- 0.0
- 0.0
---
header:
  stamp:
    sec: 1750821948
    nanosec: 542048791
  frame_id: dog_imu_link
orientation:
  x: 0.0030921048019081354
  y: 0.004393908195197582
  z: 0.007666322402656078
  w: 0.9999561905860901
orientation_covariance:
- 0.0
- 0.0
- 0.0
- 0.0
- 0.0
- 0.0
- 0.0
- 0.0
- 0.0
angular_velocity:
  x: 0.0053263213485479355
  y: 0.0021305286791175604
  z: 0.0010652643395587802
angular_velocity_covariance:
- 0.0
- 0.0
- 0.0
- 0.0
- 0.0
- 0.0
- 0.0
- 0.0
- 0.0
linear_acceleration:
  x: -0.10773907601833344
  y: 0.03501519933342934
  z: 9.744101524353027
linear_acceleration_covariance:
- -9.977598303123614e-09
- -5.162719141083016e-10
- 0.0010652643395587802
- 0.0
- 0.0
- 0.0
- 0.0
- 0.0
- 0.0
---
header:
  stamp:
    sec: 1750821948
    nanosec: 543998024
  frame_id: dog_imu_link
orientation:
  x: 0.003094160696491599
  y: 0.004392624832689762
  z: 0.007665407843887806
  w: 0.9999561905860901
orientation_covariance:
- 0.0
- 0.0
- 0.0
- 0.0
- 0.0
- 0.0
- 0.0
- 0.0
- 0.0
angular_velocity:
  x: 0.0053263213485479355
  y: 0.0010652643395587802
  z: 0.0010652643395587802
angular_velocity_covariance:
- 0.0
- 0.0
- 0.0
- 0.0
- 0.0
- 0.0
- 0.0
- 0.0
- 0.0
linear_acceleration:
  x: -0.10773907601833344
  y: 0.03501519933342934
  z: 9.744101524353027
linear_acceleration_covariance:
- 1.348099520903645e-09
- -3.0399338601938553e-09
- 0.0010652643395587802
- 0.0
- 0.0
- 0.0
- 0.0
- 0.0
- 0.0
---
header:
  stamp:
    sec: 1750821948
    nanosec: 546078294
  frame_id: dog_imu_link
orientation:
  x: 0.0030961153097450733
  y: 0.004390878137201071
  z: 0.007664491422474384
  w: 0.9999561905860901
orientation_covariance:
- 0.0
- 0.0
- 0.0
- 0.0
- 0.0
- 0.0
- 0.0
- 0.0
- 0.0
angular_velocity:
  x: 0.0053263213485479355
  y: 0.0010652643395587802
  z: 0.0010652643395587802
angular_velocity_covariance:
- 0.0
- 0.0
- 0.0
- 0.0
- 0.0
- 0.0
- 0.0
- 0.0
- 0.0
linear_acceleration:
  x: -0.0933738648891449
  y: 0.016160860657691956
  z: 9.71357536315918
linear_acceleration_covariance:
- -2.3326092168929335e-09
- -1.51719792285121e-09
- 0.0010652643395587802
- 0.0
- 0.0
- 0.0
- 0.0
- 0.0
- 0.0
---
header:
  stamp:
    sec: 1750821948
    nanosec: 548070880
  frame_id: dog_imu_link
orientation:
  x: 0.0030969898216426373
  y: 0.004389186389744282
  z: 0.007664644159376621
  w: 0.9999561905860901
orientation_covariance:
- 0.0
- 0.0
- 0.0
- 0.0
- 0.0
- 0.0
- 0.0
- 0.0
- 0.0
angular_velocity:
  x: 0.004261057358235121
  y: 0.0010652643395587802
  z: 0.0021305286791175604
angular_velocity_covariance:
- 0.0
- 0.0
- 0.0
- 0.0
- 0.0
- 0.0
- 0.0
- 0.0
- 0.0
linear_acceleration:
  x: -0.1149216815829277
  y: 0.09696517139673233
  z: 9.703699111938477
linear_acceleration_covariance:
- -6.148181963538946e-11
- -4.586816759744039e-10
- 0.0021305286791175604
- 0.0
- 0.0
- 0.0
- 0.0
- 0.0
- 0.0
---
header:
  stamp:
    sec: 1750821948
    nanosec: 550095195
  frame_id: dog_imu_link
orientation:
  x: 0.0030959597788751125
  y: 0.004388637840747833
  z: 0.0076658762991428375
  w: 0.9999561905860901
orientation_covariance:
- 0.0
- 0.0
- 0.0
- 0.0
- 0.0
- 0.0
- 0.0
- 0.0
- 0.0
angular_velocity:
  x: 0.0021305286791175604
  y: 0.0021305286791175604
  z: 0.0031957929022610188
angular_velocity_covariance:
- 0.0
- 0.0
- 0.0
- 0.0
- 0.0
- 0.0
- 0.0
- 0.0
- 0.0
linear_acceleration:
  x: -0.09606734663248062
  y: 0.10953472554683685
  z: 9.769240379333496
linear_acceleration_covariance:
- -3.281128702070646e-09
- -3.538745296793877e-09
- 0.0031957929022610188
- 0.0
- 0.0
- 0.0
- 0.0
- 0.0
- 0.0
---
header:
  stamp:
    sec: 1750821948
    nanosec: 552043414
  frame_id: dog_imu_link
orientation:
  x: 0.0030946233309805393
  y: 0.004388105124235153
  z: 0.007668175734579563
  w: 0.9999561905860901
orientation_covariance:
- 0.0
- 0.0
- 0.0
- 0.0
- 0.0
- 0.0
- 0.0
- 0.0
- 0.0
angular_velocity:
  x: 0.0010652643395587802
  y: 0.0021305286791175604
  z: 0.0053263213485479355
angular_velocity_covariance:
- 0.0
- 0.0
- 0.0
- 0.0
- 0.0
- 0.0
- 0.0
- 0.0
- 0.0
linear_acceleration:
  x: -0.09606734663248062
  y: 0.10953472554683685
  z: 9.769240379333496
linear_acceleration_covariance:
- -1.611688005276335e-09
- 7.50498152513046e-09
- 0.0053263213485479355
- 0.0
- 0.0
- 0.0
- 0.0
- 0.0
- 0.0
---
header:
  stamp:
    sec: 1750821948
    nanosec: 554025026
  frame_id: dog_imu_link
orientation:
  x: 0.003092837519943714
  y: 0.004387596156448126
  z: 0.00767101114615798
  w: 0.9999561905860901
orientation_covariance:
- 0.0
- 0.0
- 0.0
- 0.0
- 0.0
- 0.0
- 0.0
- 0.0
- 0.0
angular_velocity:
  x: 0.0010652643395587802
  y: 0.0021305286791175604
  z: 0.004261057358235121
angular_velocity_covariance:
- 0.0
- 0.0
- 0.0
- 0.0
- 0.0
- 0.0
- 0.0
- 0.0
- 0.0
linear_acceleration:
  x: -0.09965864568948746
  y: 0.07631517946720123
  z: 9.760262489318848
linear_acceleration_covariance:
- -5.549964487983061e-09
- -3.959704120148899e-09
- 0.004261057358235121
- 0.0
- 0.0
- 0.0
- 0.0
- 0.0
- 0.0
---
header:
  stamp:
    sec: 1750821948
    nanosec: 556004296
  frame_id: dog_imu_link
orientation:
  x: 0.0030910831410437822
  y: 0.004387157037854195
  z: 0.007673313375562429
  w: 0.9999561905860901
orientation_covariance:
- 0.0
- 0.0
- 0.0
- 0.0
- 0.0
- 0.0
- 0.0
- 0.0
- 0.0
angular_velocity:
  x: 0.0010652643395587802
  y: 0.0021305286791175604
  z: 0.004261057358235121
angular_velocity_covariance:
- 0.0
- 0.0
- 0.0
- 0.0
- 0.0
- 0.0
- 0.0
- 0.0
- 0.0
linear_acceleration:
  x: -0.11312603205442429
  y: 0.07541735470294952
  z: 9.68933391571045
linear_acceleration_covariance:
- 2.6867938984764805e-09
- 4.869777914251472e-09
- 0.004261057358235121
- 0.0
- 0.0
- 0.0
- 0.0
- 0.0
- 0.0
---
header:
  stamp:
    sec: 1750821948
    nanosec: 558065656
  frame_id: dog_imu_link
orientation:
  x: 0.0030893392395228148
  y: 0.004386771935969591
  z: 0.0076756165362894535
  w: 0.9999561309814453
orientation_covariance:
- 0.0
- 0.0
- 0.0
- 0.0
- 0.0
- 0.0
- 0.0
- 0.0
- 0.0
angular_velocity:
  x: 0.0010652643395587802
  y: 0.0021305286791175604
  z: 0.004261057358235121
angular_velocity_covariance:
- 0.0
- 0.0
- 0.0
- 0.0
- 0.0
- 0.0
- 0.0
- 0.0
- 0.0
linear_acceleration:
  x: -0.09786299616098404
  y: 0.05925649031996727
  z: 9.692925453186035
linear_acceleration_covariance:
- 1.1405021371757584e-09
- 2.07046779721054e-09
- 0.004261057358235121
- 0.0
- 0.0
- 0.0
- 0.0
- 0.0
- 0.0
---
header:
  stamp:
    sec: 1750821948
    nanosec: 560005018
  frame_id: dog_imu_link
orientation:
  x: 0.003087524091824889
  y: 0.00438744155690074
  z: 0.007675791624933481
  w: 0.9999561309814453
orientation_covariance:
- 0.0
- 0.0
- 0.0
- 0.0
- 0.0
- 0.0
- 0.0
- 0.0
- 0.0
angular_velocity:
  x: 0.0010652643395587802
  y: 0.0031957929022610188
  z: 0.0021305286791175604
angular_velocity_covariance:
- 0.0
- 0.0
- 0.0
- 0.0
- 0.0
- 0.0
- 0.0
- 0.0
- 0.0
linear_acceleration:
  x: -0.0834977850317955
  y: 0.04399345442652702
  z: 9.709086418151855
linear_acceleration_covariance:
- 3.909287560333041e-09
- -6.920765072138124e-10
- 0.0021305286791175604
- 0.0
- 0.0
- 0.0
- 0.0
- 0.0
- 0.0
---
header:
  stamp:
    sec: 1750821948
    nanosec: 562037282
  frame_id: dog_imu_link
orientation:
  x: 0.0030861508566886187
  y: 0.004388592205941677
  z: 0.007675965782254934
  w: 0.9999561309814453
orientation_covariance:
- 0.0
- 0.0
- 0.0
- 0.0
- 0.0
- 0.0
- 0.0
- 0.0
- 0.0
angular_velocity:
  x: 0.0021305286791175604
  y: 0.004261057358235121
  z: 0.0021305286791175604
angular_velocity_covariance:
- 0.0
- 0.0
- 0.0
- 0.0
- 0.0
- 0.0
- 0.0
- 0.0
- 0.0
linear_acceleration:
  x: -0.0834977850317955
  y: 0.04399345442652702
  z: 9.709086418151855
linear_acceleration_covariance:
- 7.558357273396155e-10
- 5.4878626087884186e-09
- 0.0021305286791175604
- 0.0
- 0.0
- 0.0
- 0.0
- 0.0
- 0.0
---
header:
  stamp:
    sec: 1750821948
    nanosec: 564078930
  frame_id: dog_imu_link
orientation:
  x: 0.0030859792605042458
  y: 0.004389750771224499
  z: 0.007676135282963514
  w: 0.9999561309814453
orientation_covariance:
- 0.0
- 0.0
- 0.0
- 0.0
- 0.0
- 0.0
- 0.0
- 0.0
- 0.0
angular_velocity:
  x: 0.0031957929022610188
  y: 0.0031957929022610188
  z: 0.0021305286791175604
angular_velocity_covariance:
- 0.0
- 0.0
- 0.0
- 0.0
- 0.0
- 0.0
- 0.0
- 0.0
- 0.0
linear_acceleration:
  x: -0.09876082092523575
  y: 0.114023856818676
  z: 9.771036148071289
linear_acceleration_covariance:
- -1.0920689907933934e-09
- -3.563500605707759e-09
- 0.0021305286791175604
- 0.0
- 0.0
- 0.0
- 0.0
- 0.0
- 0.0
---
header:
  stamp:
    sec: 1750821948
    nanosec: 566060352
  frame_id: dog_imu_link
orientation:
  x: 0.0030864158179610968
  y: 0.004390293266624212
  z: 0.0076763019897043705
  w: 0.9999561309814453
orientation_covariance:
- 0.0
- 0.0
- 0.0
- 0.0
- 0.0
- 0.0
- 0.0
- 0.0
- 0.0
angular_velocity:
  x: 0.0031957929022610188
  y: 0.0031957929022610188
  z: 0.0021305286791175604
angular_velocity_covariance:
- 0.0
- 0.0
- 0.0
- 0.0
- 0.0
- 0.0
- 0.0
- 0.0
- 0.0
linear_acceleration:
  x: -0.06464344263076782
  y: 0.07900865375995636
  z: 9.733327865600586
linear_acceleration_covariance:
- 2.3225334988552504e-09
- 3.6026539529387946e-09
- 0.0021305286791175604
- 0.0
- 0.0
- 0.0
- 0.0
- 0.0
- 0.0
---
header:
  stamp:
    sec: 1750821948
    nanosec: 568024963
  frame_id: dog_imu_link
orientation:
  x: 0.003086873097345233
  y: 0.004389727953821421
  z: 0.007677530404180288
  w: 0.9999561309814453
orientation_covariance:
- 0.0
- 0.0
- 0.0
- 0.0
- 0.0
- 0.0
- 0.0
- 0.0
- 0.0
angular_velocity:
  x: 0.0031957929022610188
  y: 0.0021305286791175604
  z: 0.0031957929022610188
angular_velocity_covariance:
- 0.0
- 0.0
- 0.0
- 0.0
- 0.0
- 0.0
- 0.0
- 0.0
- 0.0
linear_acceleration:
  x: -0.1256955862045288
  y: 0.061949968338012695
  z: 9.744999885559082
linear_acceleration_covariance:
- -1.7408111618877342e-09
- -6.836258670261941e-09
- 0.0031957929022610188
- 0.0
- 0.0
- 0.0
- 0.0
- 0.0
- 0.0
---
header:
  stamp:
    sec: 1750821948
    nanosec: 570039463
  frame_id: dog_imu_link
orientation:
  x: 0.003087288234382868
  y: 0.0043882643803954124
  z: 0.007678755093365908
  w: 0.9999561905860901
orientation_covariance:
- 0.0
- 0.0
- 0.0
- 0.0
- 0.0
- 0.0
- 0.0
- 0.0
- 0.0
angular_velocity:
  x: 0.0031957929022610188
  y: 0.0010652643395587802
  z: 0.0031957929022610188
angular_velocity_covariance:
- 0.0
- 0.0
- 0.0
- 0.0
- 0.0
- 0.0
- 0.0
- 0.0
- 0.0
linear_acceleration:
  x: -0.14903905987739563
  y: 0.05656301602721214
  z: 9.754875183105469
linear_acceleration_covariance:
- -1.031303709098097e-09
- -7.467108875669481e-11
- 0.0031957929022610188
- 0.0
- 0.0
- 0.0
- 0.0
- 0.0
- 0.0
---
header:
  stamp:
    sec: 1750821948
    nanosec: 572041936
  frame_id: dog_imu_link
orientation:
  x: 0.003087640507146716
  y: 0.004387537017464638
  z: 0.007679447531700134
  w: 0.9999561309814453
orientation_covariance:
- 0.0
- 0.0
- 0.0
- 0.0
- 0.0
- 0.0
- 0.0
- 0.0
- 0.0
angular_velocity:
  x: 0.0031957929022610188
  y: 0.0021305286791175604
  z: 0.0021305286791175604
angular_velocity_covariance:
- 0.0
- 0.0
- 0.0
- 0.0
- 0.0
- 0.0
- 0.0
- 0.0
- 0.0
linear_acceleration:
  x: -0.14903905987739563
  y: 0.05656301602721214
  z: 9.754875183105469
linear_acceleration_covariance:
- 8.544475127436613e-10
- 1.364844237627949e-09
- 0.0021305286791175604
- 0.0
- 0.0
- 0.0
- 0.0
- 0.0
- 0.0
---
header:
  stamp:
    sec: 1750821948
    nanosec: 574021164
  frame_id: dog_imu_link
orientation:
  x: 0.0030889231711626053
  y: 0.004387854598462582
  z: 0.007679075002670288
  w: 0.9999561309814453
orientation_covariance:
- 0.0
- 0.0
- 0.0
- 0.0
- 0.0
- 0.0
- 0.0
- 0.0
- 0.0
angular_velocity:
  x: 0.0053263213485479355
  y: 0.0031957929022610188
  z: 0.0010652643395587802
angular_velocity_covariance:
- 0.0
- 0.0
- 0.0
- 0.0
- 0.0
- 0.0
- 0.0
- 0.0
- 0.0
linear_acceleration:
  x: -0.0834977850317955
  y: 0.030526071786880493
  z: 9.744999885559082
linear_acceleration_covariance:
- 1.8896049169825346e-09
- -3.482444554947506e-09
- 0.0010652643395587802
- 0.0
- 0.0
- 0.0
- 0.0
- 0.0
- 0.0
---
header:
  stamp:
    sec: 1750821948
    nanosec: 576009964
  frame_id: dog_imu_link
orientation:
  x: 0.003091047517955303
  y: 0.004388726316392422
  z: 0.007678164169192314
  w: 0.9999560713768005
orientation_covariance:
- 0.0
- 0.0
- 0.0
- 0.0
- 0.0
- 0.0
- 0.0
- 0.0
- 0.0
angular_velocity:
  x: 0.0053263213485479355
  y: 0.0031957929022610188
  z: 0.0010652643395587802
angular_velocity_covariance:
- 0.0
- 0.0
- 0.0
- 0.0
- 0.0
- 0.0
- 0.0
- 0.0
- 0.0
linear_acceleration:
  x: -0.11671733111143112
  y: -0.0008978256373666227
  z: 9.741408348083496
linear_acceleration_covariance:
- 1.6425282245435824e-09
- -8.983099264447958e-10
- 0.0010652643395587802
- 0.0
- 0.0
- 0.0
- 0.0
- 0.0
- 0.0
---
header:
  stamp:
    sec: 1750821948
    nanosec: 578040441
  frame_id: dog_imu_link
orientation:
  x: 0.0030929988715797663
  y: 0.00439064996317029
  z: 0.007677256129682064
  w: 0.9999560713768005
orientation_covariance:
- 0.0
- 0.0
- 0.0
- 0.0
- 0.0
- 0.0
- 0.0
- 0.0
- 0.0
angular_velocity:
  x: 0.0053263213485479355
  y: 0.004261057358235121
  z: 0.0010652643395587802
angular_velocity_covariance:
- 0.0
- 0.0
- 0.0
- 0.0
- 0.0
- 0.0
- 0.0
- 0.0
- 0.0
linear_acceleration:
  x: -0.06464344263076782
  y: 0.03770867735147476
  z: 9.68933391571045
linear_acceleration_covariance:
- 2.8620543712776225e-09
- -7.051306205596575e-09
- 0.0010652643395587802
- 0.0
- 0.0
- 0.0
- 0.0
- 0.0
- 0.0
---
header:
  stamp:
    sec: 1750821948
    nanosec: 580006064
  frame_id: dog_imu_link
orientation:
  x: 0.003092903411015868
  y: 0.00439154077321291
  z: 0.007677339017391205
  w: 0.9999560713768005
orientation_covariance:
- 0.0
- 0.0
- 0.0
- 0.0
- 0.0
- 0.0
- 0.0
- 0.0
- 0.0
angular_velocity:
  x: 0.0031957929022610188
  y: 0.004261057358235121
  z: 0.0021305286791175604
angular_velocity_covariance:
- 0.0
- 0.0
- 0.0
- 0.0
- 0.0
- 0.0
- 0.0
- 0.0
- 0.0
linear_acceleration:
  x: -0.06464344263076782
  y: 0.03770867735147476
  z: 9.68933391571045
linear_acceleration_covariance:
- 2.522594133580469e-09
- 1.27969038143938e-10
- 0.0021305286791175604
- 0.0
- 0.0
- 0.0
- 0.0
- 0.0
- 0.0
---
header:
  stamp:
    sec: 1750821948
    nanosec: 582175661
  frame_id: dog_imu_link
orientation:
  x: 0.0030916465912014246
  y: 0.00439405208453536
  z: 0.0076781269162893295
  w: 0.9999560713768005
orientation_covariance:
- 0.0
- 0.0
- 0.0
- 0.0
- 0.0
- 0.0
- 0.0
- 0.0
- 0.0
angular_velocity:
  x: 0.0010652643395587802
  y: 0.004261057358235121
  z: 0.0031957929022610188
angular_velocity_covariance:
- 0.0
- 0.0
- 0.0
- 0.0
- 0.0
- 0.0
- 0.0
- 0.0
- 0.0
linear_acceleration:
  x: -0.08080431073904037
  y: 0.07721300423145294
  z: 9.687539100646973
linear_acceleration_covariance:
- 9.03237040716931e-09
- 3.4251701475085383e-10
- 0.0031957929022610188
- 0.0
- 0.0
- 0.0
- 0.0
- 0.0
- 0.0
---
header:
  stamp:
    sec: 1750821948
    nanosec: 584030035
  frame_id: dog_imu_link
orientation:
  x: 0.003088523866608739
  y: 0.0043945470824837685
  z: 0.007679371163249016
  w: 0.9999561309814453
orientation_covariance:
- 0.0
- 0.0
- 0.0
- 0.0
- 0.0
- 0.0
- 0.0
- 0.0
- 0.0
angular_velocity:
  x: -0.0010652643395587802
  y: 0.0021305286791175604
  z: 0.0031957929022610188
angular_velocity_covariance:
- 0.0
- 0.0
- 0.0
- 0.0
- 0.0
- 0.0
- 0.0
- 0.0
- 0.0
linear_acceleration:
  x: -0.07092822343111038
  y: 0.08888474106788635
  z: 9.68933391571045
linear_acceleration_covariance:
- -5.1582613735945415e-09
- 6.130262519832286e-09
- 0.0031957929022610188
- 0.0
- 0.0
- 0.0
- 0.0
- 0.0
- 0.0
---
header:
  stamp:
    sec: 1750821948
    nanosec: 586052421
  frame_id: dog_imu_link
orientation:
  x: 0.003084446769207716
  y: 0.004393915645778179
  z: 0.007680617272853851
  w: 0.9999561309814453
orientation_covariance:
- 0.0
- 0.0
- 0.0
- 0.0
- 0.0
- 0.0
- 0.0
- 0.0
- 0.0
angular_velocity:
  x: -0.0010652643395587802
  y: 0.0021305286791175604
  z: 0.0031957929022610188
angular_velocity_covariance:
- 0.0
- 0.0
- 0.0
- 0.0
- 0.0
- 0.0
- 0.0
- 0.0
- 0.0
linear_acceleration:
  x: -0.09068039059638977
  y: 0.055665191262960434
  z: 9.710882186889648
linear_acceleration_covariance:
- 1.2290405360104728e-09
- 9.845869675118024e-10
- 0.0031957929022610188
- 0.0
- 0.0
- 0.0
- 0.0
- 0.0
- 0.0
---
header:
  stamp:
    sec: 1750821948
    nanosec: 588066342
  frame_id: dog_imu_link
orientation:
  x: 0.0030814295168966055
  y: 0.0043922290205955505
  z: 0.00768079049885273
  w: 0.9999561309814453
orientation_covariance:
- 0.0
- 0.0
- 0.0
- 0.0
- 0.0
- 0.0
- 0.0
- 0.0
- 0.0
angular_velocity:
  x: 0.0
  y: 0.0010652643395587802
  z: 0.0021305286791175604
angular_velocity_covariance:
- 0.0
- 0.0
- 0.0
- 0.0
- 0.0
- 0.0
- 0.0
- 0.0
- 0.0
linear_acceleration:
  x: -0.07541735470294952
  y: 0.06015431880950928
  z: 9.696516990661621
linear_acceleration_covariance:
- -1.6434814620325255e-09
- 1.6755995480011165e-09
- 0.0021305286791175604
- 0.0
- 0.0
- 0.0
- 0.0
- 0.0
- 0.0
---
header:
  stamp:
    sec: 1750821948
    nanosec: 590014421
  frame_id: dog_imu_link
orientation:
  x: 0.0030784059781581163
  y: 0.004391565918922424
  z: 0.007679901551455259
  w: 0.9999561905860901
orientation_covariance:
- 0.0
- 0.0
- 0.0
- 0.0
- 0.0
- 0.0
- 0.0
- 0.0
- 0.0
angular_velocity:
  x: 0.0
  y: 0.0021305286791175604
  z: 0.0010652643395587802
angular_velocity_covariance:
- 0.0
- 0.0
- 0.0
- 0.0
- 0.0
- 0.0
- 0.0
- 0.0
- 0.0
linear_acceleration:
  x: -0.07541735470294952
  y: 0.06015431880950928
  z: 9.696516990661621
linear_acceleration_covariance:
- 2.40373276838568e-09
- 1.9293471265058315e-09
- 0.0010652643395587802
- 0.0
- 0.0
- 0.0
- 0.0
- 0.0
- 0.0
---
header:
  stamp:
    sec: 1750821948
    nanosec: 592019927
  frame_id: dog_imu_link
orientation:
  x: 0.0030765219125896692
  y: 0.0043909549713134766
  z: 0.007679009344428778
  w: 0.9999561905860901
orientation_covariance:
- 0.0
- 0.0
- 0.0
- 0.0
- 0.0
- 0.0
- 0.0
- 0.0
- 0.0
angular_velocity:
  x: 0.0021305286791175604
  y: 0.0021305286791175604
  z: 0.0010652643395587802
angular_velocity_covariance:
- 0.0
- 0.0
- 0.0
- 0.0
- 0.0
- 0.0
- 0.0
- 0.0
- 0.0
linear_acceleration:
  x: -0.10235211998224258
  y: 0.0834977850317955
  z: 9.720758438110352
linear_acceleration_covariance:
- 7.190992246108863e-10
- 1.273501304410729e-09
- 0.0010652643395587802
- 0.0
- 0.0
- 0.0
- 0.0
- 0.0
- 0.0
---
header:
  stamp:
    sec: 1750821948
    nanosec: 594176581
  frame_id: dog_imu_link
orientation:
  x: 0.003075867658481002
  y: 0.004390970803797245
